[
    {
    "name" : "福和肥宅之路",
    "info" : "聽說這是永和兩位台科資工肥宅工程師一開始跑步的路線。",
    "latitude": [25.006168, 25.005804, 25.005569, 25.005366, 25.004730, 25.004267, 25.003372, 25.002959, 25.002570, 25.002274, 24.998608, 24.997392],
    "longitude": [121.530126, 121.530248, 121.530166, 121.530017, 121.530377, 121.530718, 121.530738, 121.530895, 121.531263, 121.531338, 121.530085, 121.529567],
    "annotation_latitude": 25.002207,
    "annotation_longitude": 121.531299
  },
    {
    "name" : "美食荒漠",
    "info" : "在漫漫美食荒漠裡，究竟誰可以發現下一個美食綠洲。",
    "latitude": [24.988090, 24.987137, 24.986077],
    "longitude": [121.573521, 121.578220, 121.579636],
    "annotation_latitude": 24.987438,
    "annotation_longitude": 121.576887
  },
    {
    "name" : "拜託不要一個人跑之路",
    "info" : "尤其晚上十一點到一點，真的不要一個人跑。",
    "latitude": [25.013384, 25.008825, 25.008282, 25.006391, 25.005409],
    "longitude": [121.553635, 121.558245, 121.558650, 121.558472, 121.557258],
    "annotation_latitude": 25.010438,
    "annotation_longitude": 121.556482 
  },
    {
    "name" : "深坑老街",
    "info" : "來深坑就是要吃吃臭豆腐全餐。",
    "latitude": [25.001189, 25.001368, 25.001680, 25.001980],
    "longitude": [121.612607, 121.613878, 121.614830, 121.615518],
    "annotation_latitude": 25.001595,
    "annotation_longitude": 121.614441
  },
    {
    "name" : "森林芬多精的序章",
    "info" : "用手指戳戳看土壤戳不戳得下去吧？",
    "latitude": [25.026103, 25.033267, 25.033355, 25.027298, 25.026227, 25.025919],
    "longitude": [121.537324, 121.537445, 121.533026, 121.535131, 121.535139, 121.537065],
    "annotation_latitude": 25.029742,
    "annotation_longitude": 121.537361 
  },
    {
    "name" : "很愛國愛國東路",
    "info" : "應該不會在這裡遇到馬英九。",
    "latitude": [25.031312, 25.031682, 25.032437, 25.034719],
    "longitude": [121.529483, 121.527035, 121.522726, 121.517335],
    "annotation_latitude": 25.032815,
    "annotation_longitude": 121.521733
  },
    {
    "name" : "無聊的台科操場",
    "info" : "太激烈運動的話學生證可是會一直掉出來的呢。",
    "latitude": [25.014498, 25.014855, 25.014946, 25.015022, 25.015142, 25.015123, 25.014747, 25.014629, 25.014529, 25.014483],
    "longitude": [121.542146, 121.542579, 121.542602, 121.542591, 121.542463, 121.542315, 121.541867, 121.541857, 121.541928, 121.542026],
    "annotation_latitude": 25.014529,
    "annotation_longitude": 121.542216
  },
    {
    "name" : "台大椰林大道",
    "info" : "無論是上午跑還是晚上跑，都別有一番風味的台大椰林大道。",
    "latitude": [25.017281, 25.017287, 25.017275, 25.017090, 25.017084, 25.017573, 25.017578, 25.017376],
    "longitude": [121.534475, 121.536792, 121.539096, 121.539127, 121.540409, 121.540409, 121.539108, 121.539108],
    "annotation_latitude": 25.017292,
    "annotation_longitude": 121.537752
  },
    {
    "name" : "公館一條街",
    "info" : "不要邊跑邊看靚妹啊！",
    "latitude": [25.011163, 25.013079, 25.015571],
    "longitude": [121.536214, 121.534987, 121.531495],
    "annotation_latitude": 25.013696,
    "annotation_longitude": 121.534220
  },
    {
    "name" : "福和橋車水馬龍",
    "info" : "上下班的時候，這條路的領主便會出現。",
    "latitude": [25.005785, 25.010824],
    "longitude": [121.527257, 121.536355],
    "annotation_latitude": 25.008188,
    "annotation_longitude": 121.531664
  }
]